{"results":
[{"name":"南京信息工程大学图书馆","lat":"32.20482531","lon":"118.70838091","alt":"39.0","webpage":"http://lib.nuist.edu.cn/list.php?fid=11?fid=11&aid=82"},
{"name":"信息与控制学院","lat":"32.20521818","lon":"118.70642963","alt":"33.0","webpage":"https://cs.nuist.edu.cn/index.action"},
{"name":"电子与信息工程学院","lat":"32.20477784","lon":"118.70718374","alt":"44.0","webpage":"http://dxy.nuist.edu.cn/"}，
{"name":"环境科学与工程学院","lat":"32.20508103","lon":"118.70741369","alt":"48.0","webpage":"https://es.nuist.edu.cn//"}，
{"name":"计算机与软件学院","lat":"32.2078213","lon":"118.71125784","alt":"38.0","webpage":"https://cs.nuist.edu.cn/index.action"}，
{"name":"地理与遥感学院","lat":"32.20784918","lon":"118.71234129","alt":"39.0","webpage":"http://dlyygxy.nuist.edu.cn/"}，
{"name":"雷丁学院","lat":"32.20633604","lon":"118.71978314","alt":"30.0","webpage":"http://reading.nuist.edu.cn/"}，
{"name":"体育馆","lat":"32.20808385","lon":"118.71950017","alt":"8.0","webpage":"http://sport.nuist.edu.cn/"}，
{"name":"行政楼","lat":"32.20623881","lon":"118.71894502","alt":"24.0","webpage":0}，
{"name":"文德楼","lat":"32.20582777","lon":"118.71638087","alt":"50.0","webpage":0}，
{"name":"气象楼","lat":"32.20636413","lon":"118.7173245","alt":"35.0","webpage":0}，
{"name":"明德楼","lat":"32.20663651","lon":"118.71332503","alt":"44.0","webpage":0}，
{"name":"尚贤楼","lat":"32.20641658","lon":"118.71339664","alt":"31.0","webpage":0}，
{"name":"逸夫楼","lat":"32.20376555","lon":"118.70591098","alt":"54.0","webpage":0}，
{"name":"英语角","lat":"32.20754982","lon":"118.71078235","alt":"53.0","webpage":0}，
{"name":"长望塔","lat":"32.20748056","lon":"118.71131861","alt":"51.0","webpage":0}，
{"name":"范仲淹像","lat":"32.20643223","lon":"118.71180418","alt":"40.0","webpage":0}，
{"name":"徐长望像","lat":"32.20594871","lon":"118.7173723","alt":"18.0","webpage":0}，
]}